[
  {"id":3001,"slug":"otopeni-olympic-swimming","name":"Olympic Lanes at Complex Sportiv Otopeni","website":"https://complexnatatieotopeni.ro","category":"fitness","city":"Otopeni","region":"Ilfov","lat":44.5486,"lng":26.0850,"duration":[60,120],"indoor_outdoor":"indoor","energy":"high","seasonality":["year-round"],"tags":["category:fitness","energy:high","mood:focused","context:solo","context:friends","time_of_day:evening","cost_band:$$"]},
  {"id":3002,"slug":"bucharest-dinamo-olympic","name":"Training Session at Bazinul Olimpic Dinamo","website":"https://csdinamo.eu","category":"fitness","city":"București","region":"Floreasca","lat":44.4551,"lng":26.1024,"duration":[60,120],"indoor_outdoor":"indoor","energy":"high","seasonality":["year-round"],"tags":["category:fitness","energy:high","mood:focused","context:solo","context:friends","time_of_day:evening","cost_band:$$"]},
  {"id":3003,"slug":"brasov-mihai-mitrofan-olympic","name":"Mountain City Laps at Bazinul Olimpic Mihai Mitrofan","website":"https://dstbv.ro/bazinul-olimpic-brasov/","category":"fitness","city":"Brașov","region":"Brașov","lat":45.6579,"lng":25.6012,"duration":[60,120],"indoor_outdoor":"indoor","energy":"high","seasonality":["year-round"],"tags":["category:fitness","energy:high","mood:focused","context:solo","context:friends","time_of_day:evening","cost_band:$$"]},
  {"id":3004,"slug":"cluj-ubb-swimming","name":"University Pool at Complexul de Natație UBB","website":"https://www.ubbcluj.ro/ro/relatii-publice/comunicate/accesul-la-complexul-de-natatie","category":"fitness","city":"Cluj-Napoca","region":"Cluj","lat":46.7712,"lng":23.6236,"duration":[60,120],"indoor_outdoor":"indoor","energy":"high","seasonality":["year-round"],"tags":["category:fitness","energy:high","mood:focused","context:solo","context:friends","time_of_day:evening","cost_band:$"]},
  {"id":3005,"slug":"cluj-utcn-swimming","name":"Technical University Pool at UTCN","website":"https://www.utcluj.ro/pentru-studenti/campus/complexul-de-natatie/","category":"fitness","city":"Cluj-Napoca","region":"Cluj","lat":46.7693,"lng":23.5856,"duration":[60,120],"indoor_outdoor":"indoor","energy":"high","seasonality":["year-round"],"tags":["category:fitness","energy:high","mood:focused","context:solo","context:friends","time_of_day:evening","cost_band:$"]},
  {"id":3006,"slug":"oradea-ioan-alexandrescu-olympic","name":"Western Training at Bazinul Olimpic Ioan Alexandrescu","website":"https://csmoradea.ro/bazine-de-inot-oradea/","category":"fitness","city":"Oradea","region":"Bihor","lat":47.0458,"lng":21.9189,"duration":[60,120],"indoor_outdoor":"indoor","energy":"high","seasonality":["year-round"],"tags":["category:fitness","energy:high","mood:focused","context:solo","context:friends","time_of_day:evening","cost_band:$$"]},
  {"id":3007,"slug":"targu-mures-olympic","name":"Transylvanian Laps at Bazinul Olimpic Târgu Mureș","website":"https://clubulsportivmuresul.ro/bazin-olimpic/","category":"fitness","city":"Târgu Mureș","region":"Mureș","lat":46.5426,"lng":24.5574,"duration":[60,120],"indoor_outdoor":"indoor","energy":"high","seasonality":["year-round"],"tags":["category:fitness","energy:high","mood:focused","context:solo","context:friends","time_of_day:evening","cost_band:$$"]},
  {"id":3008,"slug":"ploiesti-complex-sportiv-city","name":"Modern Training at Complex Sportiv City","website":"https://www.complexsportivcity.ro/","category":"fitness","city":"Ploiești","region":"Prahova","lat":44.9536,"lng":26.0219,"duration":[60,120],"indoor_outdoor":"indoor","energy":"high","seasonality":["year-round"],"tags":["category:fitness","energy:high","mood:focused","context:solo","context:friends","time_of_day:evening","cost_band:$$"]},
  {"id":3009,"slug":"ploiesti-bazinul-vega","name":"Community Swimming at Bazinul Vega","website":"https://csmploiesti.ro/bazinul-vega/","category":"fitness","city":"Ploiești","region":"Prahova","lat":44.9389,"lng":26.0258,"duration":[60,120],"indoor_outdoor":"indoor","energy":"medium","seasonality":["year-round"],"tags":["category:fitness","energy:medium","mood:social","context:solo","context:friends","time_of_day:evening","cost_band:$"]},
  {"id":3010,"slug":"sibiu-aria-aqua-park","name":"Year-Round Swimming at Aria Aqua Park","website":"https://ariasibiu.ro/","category":"fitness","city":"Sibiu","region":"Sibiu","lat":45.7983,"lng":24.1256,"duration":[60,120],"indoor_outdoor":"indoor","energy":"medium","seasonality":["year-round"],"tags":["category:fitness","energy:medium","mood:social","context:solo","context:friends","context:family","time_of_day:evening","cost_band:$$"]},
  {"id":3011,"slug":"iasi-world-class-mall-moldova","name":"Premium Club Swimming at World Class Mall Moldova","website":"https://www.worldclass.ro/club/world-class-mall-moldova/","category":"fitness","city":"Iași","region":"Iași","lat":47.1615,"lng":27.5878,"duration":[60,120],"indoor_outdoor":"indoor","energy":"high","seasonality":["year-round"],"tags":["category:fitness","energy:high","mood:focused","mood:sophisticated","context:solo","context:friends","time_of_day:evening","cost_band:$$$"]},
  {"id":3012,"slug":"constanta-world-class-city-park","name":"Coastal Training at World Class Constanța","website":"https://www.worldclass.ro/club/worldclass-constanta-city-park/","category":"fitness","city":"Constanța","region":"Constanța","lat":44.1767,"lng":28.6472,"duration":[60,120],"indoor_outdoor":"indoor","energy":"high","seasonality":["year-round"],"tags":["category:fitness","energy:high","mood:focused","mood:sophisticated","context:solo","context:friends","time_of_day:evening","cost_band:$$$"]},
  
  {"id":3101,"slug":"bucharest-stejarii-tennis","name":"Premium Tennis at Stejarii Country Club","website":"https://stejariicountryclub.ro/tennis/","category":"sports","city":"București","region":"Băneasa","lat":44.4929,"lng":26.0752,"duration":[60,120],"indoor_outdoor":"both","energy":"high","seasonality":["year-round"],"tags":["category:sports","energy:high","mood:focused","mood:sophisticated","context:date","context:friends","time_of_day:evening","cost_band:$$$$"]},
  {"id":3102,"slug":"cluj-winners-sports-tennis","name":"Modern Tennis at Winners Sports Club","website":"https://winners-sports.com/","category":"sports","city":"Cluj-Napoca","region":"Cluj","lat":46.7693,"lng":23.5985,"duration":[60,120],"indoor_outdoor":"both","energy":"high","seasonality":["year-round"],"tags":["category:sports","energy:high","mood:social","mood:focused","context:friends","context:solo","time_of_day:evening","cost_band:$$$"]},
  {"id":3103,"slug":"mamaia-tenis-club-idu","name":"Coastal Tennis at Tenis Club IDU","website":"https://tenisclubidu.ro/","category":"sports","city":"Mamaia","region":"Constanța","lat":44.2147,"lng":28.6139,"duration":[60,120],"indoor_outdoor":"outdoor","energy":"high","seasonality":["spring","summer","fall"],"tags":["category:sports","energy:high","mood:social","mood:energetic","context:friends","context:date","time_of_day:evening","cost_band:$$$"]},
  {"id":3104,"slug":"bucharest-pescariu-tennis","name":"Wellness & Tennis at Pescariu Sports","website":"https://pescariusports.ro/tennis/","category":"sports","city":"București","region":"Pipera","lat":44.4892,"lng":26.1247,"duration":[60,120],"indoor_outdoor":"both","energy":"high","seasonality":["year-round"],"tags":["category:sports","energy:high","mood:focused","mood:sophisticated","context:friends","context:solo","time_of_day:evening","cost_band:$$$$"]},
  {"id":3105,"slug":"bucharest-north-tennis-herastrau","name":"Parkside Tennis at North Tennis Herăstrău","website":"https://northtennis.ro/","category":"sports","city":"București","region":"Herăstrău","lat":44.4758,"lng":26.0856,"duration":[60,120],"indoor_outdoor":"outdoor","energy":"high","seasonality":["spring","summer","fall"],"tags":["category:sports","energy:high","mood:social","mood:focused","context:friends","context:solo","time_of_day:evening","cost_band:$$$"]},
  {"id":3106,"slug":"bucharest-bdk-tennis-herastrau","name":"Community Tennis at BDK Tennis Herăstrău","website":"https://bdktenis.ro/","category":"sports","city":"București","region":"Herăstrău","lat":44.4769,"lng":26.0842,"duration":[60,120],"indoor_outdoor":"outdoor","energy":"high","seasonality":["spring","summer","fall"],"tags":["category:sports","energy:high","mood:social","mood:focused","context:friends","context:solo","time_of_day:evening","cost_band:$$"]},
  {"id":3107,"slug":"bucharest-centrul-national-tenis","name":"National Training at Centrul Național de Tenis","website":"https://frt.ro/ro/statice/centrul-national-de-tenis","category":"sports","city":"București","region":"Progresul","lat":44.4156,"lng":26.1389,"duration":[60,120],"indoor_outdoor":"both","energy":"high","seasonality":["year-round"],"tags":["category:sports","energy:high","mood:focused","mood:energetic","context:friends","context:solo","time_of_day:evening","cost_band:$$$"]},
  {"id":3108,"slug":"timisoara-tenis-mosnita","name":"Western Tennis at Tenis Timișoara","website":"https://tenis-tm.ro/","category":"sports","city":"Moșnița Nouă","region":"Timiș","lat":45.7892,"lng":21.1547,"duration":[60,120],"indoor_outdoor":"outdoor","energy":"high","seasonality":["spring","summer","fall"],"tags":["category:sports","energy:high","mood:social","mood:focused","context:friends","context:solo","time_of_day:evening","cost_band:$$"]},
  {"id":3109,"slug":"brasov-tenis-arena","name":"Mountain City Tennis at Tenis Arena Brașov","website":"https://tenis-arena.ro/","category":"sports","city":"Brașov","region":"Brașov","lat":45.6524,"lng":25.6089,"duration":[60,120],"indoor_outdoor":"both","energy":"high","seasonality":["year-round"],"tags":["category:sports","energy:high","mood:social","mood:focused","context:friends","context:solo","time_of_day:evening","cost_band:$$"]},
  {"id":3110,"slug":"timisoara-tenis-club-as","name":"Urban Tennis at Tenis Club AS","website":"https://tenisclubas.ro/","category":"sports","city":"Timișoara","region":"Timiș","lat":45.7489,"lng":21.2267,"duration":[60,120],"indoor_outdoor":"outdoor","energy":"high","seasonality":["spring","summer","fall"],"tags":["category:sports","energy:high","mood:social","mood:focused","context:friends","context:solo","time_of_day:evening","cost_band:$$"]},
  {"id":3111,"slug":"iasi-tenis-club-leo","name":"Moldavian Tennis at Tenis Club Leo","website":"https://www.tenisclubleo.ro/","category":"sports","city":"Iași","region":"Iași","lat":47.1589,"lng":27.5897,"duration":[60,120],"indoor_outdoor":"outdoor","energy":"high","seasonality":["spring","summer","fall"],"tags":["category:sports","energy:high","mood:social","mood:focused","context:friends","context:solo","time_of_day:evening","cost_band:$$"]},
  {"id":3112,"slug":"iasi-itenis","name":"Modern Tennis at iTENIS Iași","website":"https://www.itenisiasi.ro/","category":"sports","city":"Iași","region":"Iași","lat":47.1625,"lng":27.5842,"duration":[60,120],"indoor_outdoor":"both","energy":"high","seasonality":["year-round"],"tags":["category:sports","energy:high","mood:social","mood:focused","context:friends","context:solo","time_of_day:evening","cost_band:$$"]},
  
  {"id":3201,"slug":"brasov-weplay-badminton","name":"Social Badminton at WePlay Brașov","website":"https://weplay.ro/","category":"sports","city":"Brașov","region":"Brașov","lat":45.6489,"lng":25.6058,"duration":[60,120],"indoor_outdoor":"indoor","energy":"high","seasonality":["year-round"],"tags":["category:sports","energy:high","mood:social","mood:energetic","context:friends","context:solo","time_of_day:evening","cost_band:$$"]},
  {"id":3202,"slug":"cluj-badminton-club","name":"Competitive Badminton at Badminton Club Cluj","website":"https://badmintonclubcluj.ro/","category":"sports","city":"Cluj-Napoca","region":"Cluj","lat":46.7708,"lng":23.5919,"duration":[60,120],"indoor_outdoor":"indoor","energy":"high","seasonality":["year-round"],"tags":["category:sports","energy:high","mood:focused","mood:social","context:friends","context:solo","time_of_day:evening","cost_band:$$"]},
  {"id":3203,"slug":"bucharest-acs-pro-badminton","name":"Training & Play at ACS Pro Badminton","website":"https://acs-pro-badminton.ro/cursuri-badminton/","category":"sports","city":"București","region":"București","lat":44.4479,"lng":26.0968,"duration":[60,120],"indoor_outdoor":"indoor","energy":"high","seasonality":["year-round"],"tags":["category:sports","energy:high","mood:focused","mood:social","context:friends","context:solo","time_of_day:evening","cost_band:$$"]},
  {"id":3204,"slug":"bucharest-aerosquash-badminton","name":"Multi-Sport Badminton at AeroSquash Băneasa","website":"https://www.aerosquash.ro/","category":"sports","city":"București","region":"Băneasa","lat":44.5086,"lng":26.0789,"duration":[60,120],"indoor_outdoor":"indoor","energy":"high","seasonality":["year-round"],"tags":["category:sports","energy:high","mood:social","mood:energetic","context:friends","context:solo","time_of_day:evening","cost_band:$$"]},
  {"id":3205,"slug":"timisoara-banu-sport-badminton","name":"Community Badminton at Banu Sport","website":"https://banusport.ro/","category":"sports","city":"Timișoara","region":"Timiș","lat":45.7489,"lng":21.2267,"duration":[60,120],"indoor_outdoor":"indoor","energy":"high","seasonality":["year-round"],"tags":["category:sports","energy:high","mood:social","mood:chill","context:friends","context:solo","time_of_day:evening","cost_band:$"]},
  {"id":3206,"slug":"iasi-stomart-badminton","name":"Sports Hall Badminton at Sala STOMART","website":"https://stomart.basketball/sala-stomart/","category":"sports","city":"Iași","region":"Iași","lat":47.1578,"lng":27.5899,"duration":[60,120],"indoor_outdoor":"indoor","energy":"high","seasonality":["year-round"],"tags":["category:sports","energy:high","mood:social","mood:chill","context:friends","context:solo","time_of_day:evening","cost_band:$"]},
  {"id":3207,"slug":"timisoara-csm-badminton","name":"Club Badminton at CSM Timișoara","website":"https://www.csmtimisoara.ro/","category":"sports","city":"Timișoara","region":"Timiș","lat":45.7489,"lng":21.2267,"duration":[60,120],"indoor_outdoor":"indoor","energy":"high","seasonality":["year-round"],"tags":["category:sports","energy:high","mood:focused","mood:social","context:friends","context:solo","time_of_day:evening","cost_band:$"]},
  {"id":3208,"slug":"bucharest-sportul-studentesc-badminton","name":"Student Club Badminton at Sportul Studențesc","website":"https://sportulstudentesc.ro/","category":"sports","city":"București","region":"București","lat":44.4479,"lng":26.0968,"duration":[60,120],"indoor_outdoor":"indoor","energy":"high","seasonality":["year-round"],"tags":["category:sports","energy:high","mood:social","mood:chill","context:friends","context:solo","time_of_day:evening","cost_band:$"]},
  
  {"id":3301,"slug":"bucharest-horeca-culinary-school","name":"Professional Cooking at Horeca Culinary School","website":"https://horecaschool.ro/","category":"culinary","city":"București","region":"București","lat":44.4479,"lng":26.0968,"duration":[120,240],"indoor_outdoor":"indoor","energy":"medium","seasonality":["year-round"],"tags":["category:culinary","energy:medium","mood:creative","mood:focused","context:solo","context:friends","time_of_day:daytime","time_of_day:evening","cost_band:$$$"]},
  {"id":3302,"slug":"bucharest-cooking-studio","name":"Hands-On Classes at Cooking Studio","website":"https://cookingstudio.ro/","category":"culinary","city":"București","region":"București","lat":44.4479,"lng":26.0968,"duration":[120,180],"indoor_outdoor":"indoor","energy":"medium","seasonality":["year-round"],"tags":["category:culinary","energy:medium","mood:creative","mood:social","context:solo","context:friends","context:date","time_of_day:evening","cost_band:$$"]},
  {"id":3303,"slug":"bucharest-ilbah-amateur-cooking","name":"Amateur Cooking at Atelierele ILBAH","website":"https://www.ateliereleilbah.ro/cursuri/curs-de-gatit-pentru-amatori/","category":"culinary","city":"București","region":"București","lat":44.4475,"lng":26.0840,"duration":[150,240],"indoor_outdoor":"indoor","energy":"medium","seasonality":["year-round"],"tags":["category:culinary","energy:medium","mood:creative","mood:focused","context:solo","context:friends","time_of_day:evening","cost_band:$$"]},
  {"id":3304,"slug":"bucharest-dallesgo-cooking-beginners","name":"Cooking for Beginners at DallesGO","website":"https://www.dallesgo.ro/cursuri/cooking-incepatori/","category":"culinary","city":"București","region":"București","lat":44.4446,"lng":26.0968,"duration":[150,180],"indoor_outdoor":"indoor","energy":"medium","seasonality":["year-round"],"tags":["category:culinary","energy:medium","mood:creative","mood:social","context:solo","context:friends","time_of_day:evening","cost_band:$$"]},
  {"id":3305,"slug":"bucharest-societe-gourmet","name":"Gourmet Techniques at Société Gourmet","website":"https://societegourmet.ro/","category":"culinary","city":"București","region":"București","lat":44.4479,"lng":26.0968,"duration":[120,180],"indoor_outdoor":"indoor","energy":"medium","seasonality":["year-round"],"tags":["category:culinary","energy:medium","mood:creative","mood:sophisticated","context:solo","context:date","context:friends","time_of_day:evening","cost_band:$$$"]},
  {"id":3306,"slug":"bucharest-culinaryon","name":"Modern Cooking at CulinaryOn România","website":"https://culinaryon.ro/","category":"culinary","city":"București","region":"București","lat":44.4479,"lng":26.0968,"duration":[120,180],"indoor_outdoor":"indoor","energy":"medium","seasonality":["year-round"],"tags":["category:culinary","energy:medium","mood:creative","mood:social","context:solo","context:friends","time_of_day:evening","cost_band:$$"]},
  {"id":3307,"slug":"bucharest-cluj-artisan-cooking","name":"Artisan Techniques at Artisan Cooking Classes","website":"https://artisan-cooking.ro/","category":"culinary","city":"București","region":"București","lat":44.4479,"lng":26.0968,"duration":[120,180],"indoor_outdoor":"indoor","energy":"medium","seasonality":["year-round"],"tags":["category:culinary","energy:medium","mood:creative","mood:focused","context:solo","context:friends","time_of_day:evening","cost_band:$$"]},
  {"id":3308,"slug":"cluj-grill-expert-academy","name":"Grill Mastery at Grill Expert Academy","website":"https://grill-expert.ro/grill-academy/","category":"culinary","city":"Cluj-Napoca","region":"Cluj","lat":46.7708,"lng":23.5919,"duration":[120,180],"indoor_outdoor":"outdoor","energy":"medium","seasonality":["spring","summer","fall"],"tags":["category:culinary","energy:medium","mood:creative","mood:social","context:friends","context:small-group","time_of_day:evening","cost_band:$$"]},
  {"id":3309,"slug":"transylvania-mytransylvania-eat-local","name":"Local Cuisine Workshops at My Transylvania","website":"https://experiences.mytransylvania.ro/","category":"culinary","city":"Brașov","region":"Brașov","lat":45.6524,"lng":25.6089,"duration":[180,240],"indoor_outdoor":"indoor","energy":"medium","seasonality":["year-round"],"tags":["category:culinary","energy:medium","mood:creative","mood:explorer","context:solo","context:friends","time_of_day:daytime","cost_band:$$"]},
  {"id":3310,"slug":"bucharest-kuxa-studio","name":"Culinary Workshops at KUXA Studio","website":"https://kuxa.ro/","category":"culinary","city":"București","region":"București","lat":44.4479,"lng":26.0968,"duration":[120,180],"indoor_outdoor":"indoor","energy":"medium","seasonality":["year-round"],"tags":["category:culinary","energy:medium","mood:creative","mood:social","context:solo","context:friends","time_of_day:evening","cost_band:$$"]},
  {"id":3311,"slug":"turda-casa-ratiu-cookery","name":"Traditional Cookery at Casa Ratiu","website":"https://casaratiu.ro/wp-content/uploads/2025/09/Cookery-lessons.pdf","category":"culinary","city":"Turda","region":"Cluj","lat":46.5742,"lng":23.7864,"duration":[120,180],"indoor_outdoor":"indoor","energy":"medium","seasonality":["year-round"],"tags":["category:culinary","energy:medium","mood:creative","mood:explorer","context:solo","context:friends","time_of_day:daytime","cost_band:$$"]},
  {"id":3312,"slug":"bucharest-disciples-escoffier","name":"French Techniques at Disciples Escoffier","website":"https://escoffier.ro/","category":"culinary","city":"București","region":"București","lat":44.4479,"lng":26.0968,"duration":[180,240],"indoor_outdoor":"indoor","energy":"medium","seasonality":["year-round"],"tags":["category:culinary","energy:medium","mood:creative","mood:sophisticated","mood:focused","context:solo","context:friends","time_of_day:evening","cost_band:$$$"]},
  {"id":3313,"slug":"bucharest-icep-chef-courses","name":"Professional Chef Training at ICEP Hotel School","website":"https://icephotelschool.com/collections/cursuri-bucatar","category":"culinary","city":"București","region":"București","lat":44.4479,"lng":26.0968,"duration":[180,300],"indoor_outdoor":"indoor","energy":"medium","seasonality":["year-round"],"tags":["category:culinary","energy:medium","mood:focused","mood:creative","context:solo","time_of_day:daytime","cost_band:$$$"]},
  {"id":3314,"slug":"bucharest-icep-chef-bucharest","name":"Chef Course at ICEP București","website":"https://icephotelschool.com/products/curs-bucatar-bucuresti","category":"culinary","city":"București","region":"București","lat":44.4479,"lng":26.0968,"duration":[180,300],"indoor_outdoor":"indoor","energy":"medium","seasonality":["year-round"],"tags":["category:culinary","energy:medium","mood:focused","mood:creative","context:solo","time_of_day:daytime","cost_band:$$$"]},
  {"id":3315,"slug":"bucharest-horeca-masterclass","name":"Culinary Masterclass at Horeca School","website":"https://horecaschool.ro/ateliere-si-masterclass-ateliere-de-gatit-horeca-school/","category":"culinary","city":"București","region":"București","lat":44.4479,"lng":26.0968,"duration":[120,180],"indoor_outdoor":"indoor","energy":"medium","seasonality":["year-round"],"tags":["category:culinary","energy:medium","mood:creative","mood:sophisticated","context:solo","context:friends","time_of_day:evening","cost_band:$$$"]},
  {"id":3316,"slug":"sibiu-simpa-pastry","name":"Pastry Courses at SIMPA Sibiu","website":"https://simpasibiu.ro/2019/09/23/pastry-courses/","category":"culinary","city":"Sibiu","region":"Sibiu","lat":45.7983,"lng":24.1256,"duration":[120,180],"indoor_outdoor":"indoor","energy":"medium","seasonality":["year-round"],"tags":["category:culinary","energy:medium","mood:creative","mood:focused","context:solo","context:friends","time_of_day:daytime","cost_band:$$"]}
]
